$GPGGA,170907.00,5742.007,N,01159.297,E,1,05,0.92,30,M,32.5,M,,*70

$GPGSA,A,3,13,11,16,06,22,,,,,,,,1.56,0.92,1.25*0E

$GPGSV,4,1,15,13,32,341,99,10,30,067,67,32,77,246,96,16,17,232,08*7B

$GPGSV,4,2,15,11,55,059,43,22,73,068,64,01,25,248,55,28,27,335,43*7D

$GPGSV,4,3,15,18,07,171,20,25,24,165,09,12,44,036,56,02,38,282,10*7E

$GPGSV,4,4,15,21,11,066,65,06,83,155,12,26,84,312,39*40

$GPGLL,5742.007,N,01159.297,E,170907.000,A,A*52

$GPRMC,170907.000,A,5742.007,N,01159.297,E,0.000,45.0,100724,,,A*54

$GPHDT,45.0,T*04

$GPVTG,45.0,T,,M,0,N,0.0,K*4F

$GPZDA,170907.000,10,07,2024,0,0*5C

$GPGGA,170908.00,5742.007,N,01159.297,E,1,05,0.92,30,M,32.5,M,,*7F

$GPGSA,A,3,13,11,16,06,22,,,,,,,,1.56,0.92,1.25*0E

$GPGSV,4,1,15,13,32,341,99,10,30,067,67,32,77,246,96,16,17,232,08*7B

$GPGSV,4,2,15,11,55,059,43,22,73,068,64,01,25,248,55,28,27,335,43*7D

$GPGSV,4,3,15,18,07,171,20,25,24,165,09,12,44,036,56,02,38,282,10*7E

$GPGSV,4,4,15,21,11,066,65,06,83,155,12,26,84,312,39*40

$GPGLL,5742.007,N,01159.297,E,170908.000,A,A*5D

$GPRMC,170908.000,A,5742.007,N,01159.297,E,0.000,45.0,100724,,,A*5B

$GPHDT,45.0,T*04

$GPVTG,45.0,T,,M,0,N,0.0,K*4F

$GPZDA,170908.000,10,07,2024,0,0*53

$GPGGA,170909.00,5742.007,N,01159.297,E,1,05,0.92,30,M,32.5,M,,*7E

$GPGSA,A,3,13,11,16,06,22,,,,,,,,1.56,0.92,1.25*0E

$GPGSV,4,1,15,13,32,341,99,10,30,067,67,32,77,246,96,16,17,232,08*7B

$GPGSV,4,2,15,11,55,059,43,22,73,068,64,01,25,248,55,28,27,335,43*7D

$GPGSV,4,3,15,18,07,171,20,25,24,165,09,12,44,036,56,02,38,282,10*7E

$GPGSV,4,4,15,21,11,066,65,06,83,155,12,26,84,312,39*40

$GPGLL,5742.007,N,01159.297,E,170909.000,A,A*5C

$GPRMC,170909.000,A,5742.007,N,01159.297,E,0.000,45.0,100724,,,A*5A

$GPHDT,45.0,T*04

$GPVTG,45.0,T,,M,0,N,0.0,K*4F

$GPZDA,170909.000,10,07,2024,0,0*52

$GPGGA,170910.00,5742.007,N,01159.297,E,1,05,0.92,30,M,32.5,M,,*76

$GPGSA,A,3,13,11,16,06,22,,,,,,,,1.56,0.92,1.25*0E

$GPGSV,4,1,15,13,32,341,99,10,30,067,67,32,77,246,96,16,17,232,08*7B

$GPGSV,4,2,15,11,55,059,43,22,73,068,64,01,25,248,55,28,27,335,43*7D

$GPGSV,4,3,15,18,07,171,20,25,24,165,09,12,44,036,56,02,38,282,10*7E

$GPGSV,4,4,15,21,11,066,65,06,83,155,12,26,84,312,39*40

$GPGLL,5742.007,N,01159.297,E,170910.000,A,A*54

$GPRMC,170910.000,A,5742.007,N,01159.297,E,0.000,45.0,100724,,,A*52

$GPHDT,45.0,T*04

$GPVTG,45.0,T,,M,0,N,0.0,K*4F

$GPZDA,170910.000,10,07,2024,0,0*5A

$GPGGA,170911.00,5742.007,N,01159.297,E,1,05,0.92,30,M,32.5,M,,*77

$GPGSA,A,3,13,11,16,06,22,,,,,,,,1.56,0.92,1.25*0E

$GPGSV,4,1,15,13,32,341,99,10,30,067,67,32,77,246,96,16,17,232,08*7B

$GPGSV,4,2,15,11,55,059,43,22,73,068,64,01,25,248,55,28,27,335,43*7D

$GPGSV,4,3,15,18,07,171,20,25,24,165,09,12,44,036,56,02,38,282,10*7E

$GPGSV,4,4,15,21,11,066,65,06,83,155,12,26,84,312,39*40

$GPGLL,5742.007,N,01159.297,E,170911.000,A,A*55

$GPRMC,170911.000,A,5742.007,N,01159.297,E,0.000,45.0,100724,,,A*53

$GPHDT,45.0,T*04

$GPVTG,45.0,T,,M,0,N,0.0,K*4F

$GPZDA,170911.000,10,07,2024,0,0*5B

$GPGGA,170913.00,5742.007,N,01159.297,E,1,05,0.92,30,M,32.5,M,,*75

$GPGSA,A,3,13,11,16,06,22,,,,,,,,1.56,0.92,1.25*0E

$GPGSV,4,1,15,13,32,341,99,10,30,067,67,32,77,246,96,16,17,232,08*7B

$GPGSV,4,2,15,11,55,059,43,22,73,068,64,01,25,248,55,28,27,335,43*7D

$GPGSV,4,3,15,18,07,171,20,25,24,165,09,12,44,036,56,02,38,282,10*7E

$GPGSV,4,4,15,21,11,066,65,06,83,155,12,26,84,312,39*40

$GPGLL,5742.007,N,01159.297,E,170913.000,A,A*57

$GPRMC,170913.000,A,5742.007,N,01159.297,E,0.000,45.0,100724,,,A*51

$GPHDT,45.0,T*04

$GPVTG,45.0,T,,M,0,N,0.0,K*4F

$GPZDA,170913.000,10,07,2024,0,0*59

$GPGGA,170914.00,5742.007,N,01159.297,E,1,05,0.92,30,M,32.5,M,,*72

$GPGSA,A,3,13,11,16,06,22,,,,,,,,1.56,0.92,1.25*0E

$GPGSV,4,1,15,13,32,341,99,10,30,067,67,32,77,246,96,16,17,232,08*7B

$GPGSV,4,2,15,11,55,059,43,22,73,068,64,01,25,248,55,28,27,335,43*7D

$GPGSV,4,3,15,18,07,171,20,25,24,165,09,12,44,036,56,02,38,282,10*7E

$GPGSV,4,4,15,21,11,066,65,06,83,155,12,26,84,312,39*40

$GPGLL,5742.007,N,01159.297,E,170914.000,A,A*50

$GPRMC,170914.000,A,5742.007,N,01159.297,E,0.000,45.0,100724,,,A*56

$GPHDT,45.0,T*04

$GPVTG,45.0,T,,M,0,N,0.0,K*4F

$GPZDA,170914.000,10,07,2024,0,0*5E

$GPGGA,170915.00,5742.007,N,01159.297,E,1,05,0.92,30,M,32.5,M,,*73

$GPGSA,A,3,13,11,16,06,22,,,,,,,,1.56,0.92,1.25*0E

$GPGSV,4,1,15,13,32,341,99,10,30,067,67,32,77,246,96,16,17,232,08*7B

$GPGSV,4,2,15,11,55,059,43,22,73,068,64,01,25,248,55,28,27,335,43*7D

$GPGSV,4,3,15,18,07,171,20,25,24,165,09,12,44,036,56,02,38,282,10*7E

$GPGSV,4,4,15,21,11,066,65,06,83,155,12,26,84,312,39*40

$GPGLL,5742.007,N,01159.297,E,170915.000,A,A*51

$GPRMC,170915.000,A,5742.007,N,01159.297,E,0.000,45.0,100724,,,A*57

$GPHDT,45.0,T*04

$GPVTG,45.0,T,,M,0,N,0.0,K*4F

$GPZDA,170915.000,10,07,2024,0,0*5F

$GPGGA,170916.00,5742.007,N,01159.297,E,1,05,0.92,30,M,32.5,M,,*70

$GPGSA,A,3,13,11,16,06,22,,,,,,,,1.56,0.92,1.25*0E

$GPGSV,4,1,15,13,32,341,99,10,30,067,67,32,77,246,96,16,17,232,08*7B

$GPGSV,4,2,15,11,55,059,43,22,73,068,64,01,25,248,55,28,27,335,43*7D

$GPGSV,4,3,15,18,07,171,20,25,24,165,09,12,44,036,56,02,38,282,10*7E

$GPGSV,4,4,15,21,11,066,65,06,83,155,12,26,84,312,39*40

$GPGLL,5742.007,N,01159.297,E,170916.000,A,A*52

$GPRMC,170916.000,A,5742.007,N,01159.297,E,0.000,45.0,100724,,,A*54

$GPHDT,45.0,T*04

$GPVTG,45.0,T,,M,0,N,0.0,K*4F

$GPZDA,170916.000,10,07,2024,0,0*5C

$GPGGA,170917.00,5742.007,N,01159.297,E,1,05,0.92,30,M,32.5,M,,*71

$GPGSA,A,3,13,11,16,06,22,,,,,,,,1.56,0.92,1.25*0E

$GPGSV,4,1,15,13,32,341,99,10,30,067,67,32,77,246,96,16,17,232,08*7B

$GPGSV,4,2,15,11,55,059,43,22,73,068,64,01,25,248,55,28,27,335,43*7D

$GPGSV,4,3,15,18,07,171,20,25,24,165,09,12,44,036,56,02,38,282,10*7E

$GPGSV,4,4,15,21,11,066,65,06,83,155,12,26,84,312,39*40

$GPGLL,5742.007,N,01159.297,E,170917.000,A,A*53

$GPRMC,170917.000,A,5742.007,N,01159.297,E,0.000,45.0,100724,,,A*55

$GPHDT,45.0,T*04

$GPVTG,45.0,T,,M,0,N,0.0,K*4F

$GPZDA,170917.000,10,07,2024,0,0*5D

$GPGGA,170918.00,5742.007,N,01159.297,E,1,05,0.92,30,M,32.5,M,,*7E

$GPGSA,A,3,13,11,16,06,22,,,,,,,,1.56,0.92,1.25*0E

$GPGSV,4,1,15,13,32,341,99,10,30,067,67,32,77,246,96,16,17,232,08*7B

$GPGSV,4,2,15,11,55,059,43,22,73,068,64,01,25,248,55,28,27,335,43*7D

$GPGSV,4,3,15,18,07,171,20,25,24,165,09,12,44,036,56,02,38,282,10*7E

$GPGSV,4,4,15,21,11,066,65,06,83,155,12,26,84,312,39*40

$GPGLL,5742.007,N,01159.297,E,170918.000,A,A*5C

$GPRMC,170918.000,A,5742.007,N,01159.297,E,0.000,45.0,100724,,,A*5A

$GPHDT,45.0,T*04

$GPVTG,45.0,T,,M,0,N,0.0,K*4F

$GPZDA,170918.000,10,07,2024,0,0*52

$GPGGA,170919.00,5742.007,N,01159.297,E,1,05,0.92,30,M,32.5,M,,*7F

$GPGSA,A,3,13,11,16,06,22,,,,,,,,1.56,0.92,1.25*0E

$GPGSV,4,1,15,13,32,341,99,10,30,067,67,32,77,246,96,16,17,232,08*7B

$GPGSV,4,2,15,11,55,059,43,22,73,068,64,01,25,248,55,28,27,335,43*7D

$GPGSV,4,3,15,18,07,171,20,25,24,165,09,12,44,036,56,02,38,282,10*7E

$GPGSV,4,4,15,21,11,066,65,06,83,155,12,26,84,312,39*40

$GPGLL,5742.007,N,01159.297,E,170919.000,A,A*5D

$GPRMC,170919.000,A,5742.007,N,01159.297,E,0.000,45.0,100724,,,A*5B

$GPHDT,45.0,T*04

$GPVTG,45.0,T,,M,0,N,0.0,K*4F

$GPZDA,170919.000,10,07,2024,0,0*53

$GPGGA,170920.00,5742.007,N,01159.297,E,1,05,0.92,30,M,32.5,M,,*75

$GPGSA,A,3,13,11,16,06,22,,,,,,,,1.56,0.92,1.25*0E

$GPGSV,4,1,15,13,32,341,99,10,30,067,67,32,77,246,96,16,17,232,08*7B

$GPGSV,4,2,15,11,55,059,43,22,73,068,64,01,25,248,55,28,27,335,43*7D

$GPGSV,4,3,15,18,07,171,20,25,24,165,09,12,44,036,56,02,38,282,10*7E

$GPGSV,4,4,15,21,11,066,65,06,83,155,12,26,84,312,39*40

$GPGLL,5742.007,N,01159.297,E,170920.000,A,A*57

$GPRMC,170920.000,A,5742.007,N,01159.297,E,0.000,45.0,100724,,,A*51

$GPHDT,45.0,T*04

$GPVTG,45.0,T,,M,0,N,0.0,K*4F

$GPZDA,170920.000,10,07,2024,0,0*59

$GPGGA,170921.00,5742.007,N,01159.297,E,1,05,0.92,30,M,32.5,M,,*74

$GPGSA,A,3,13,11,16,06,22,,,,,,,,1.56,0.92,1.25*0E

$GPGSV,4,1,15,13,32,341,99,10,30,067,67,32,77,246,96,16,17,232,08*7B

$GPGSV,4,2,15,11,55,059,43,22,73,068,64,01,25,248,55,28,27,335,43*7D

$GPGSV,4,3,15,18,07,171,20,25,24,165,09,12,44,036,56,02,38,282,10*7E

$GPGSV,4,4,15,21,11,066,65,06,83,155,12,26,84,312,39*40

$GPGLL,5742.007,N,01159.297,E,170921.000,A,A*56

$GPRMC,170921.000,A,5742.007,N,01159.297,E,0.000,45.0,100724,,,A*50

$GPHDT,45.0,T*04

$GPVTG,45.0,T,,M,0,N,0.0,K*4F

$GPZDA,170921.000,10,07,2024,0,0*58

$GPGGA,170922.00,5742.007,N,01159.297,E,1,05,0.92,30,M,32.5,M,,*77

$GPGSA,A,3,13,11,16,06,22,,,,,,,,1.56,0.92,1.25*0E

$GPGSV,4,1,15,13,32,341,99,10,30,067,67,32,77,246,96,16,17,232,08*7B

$GPGSV,4,2,15,11,55,059,43,22,73,068,64,01,25,248,55,28,27,335,43*7D

$GPGSV,4,3,15,18,07,171,20,25,24,165,09,12,44,036,56,02,38,282,10*7E

$GPGSV,4,4,15,21,11,066,65,06,83,155,12,26,84,312,39*40

$GPGLL,5742.007,N,01159.297,E,170922.000,A,A*55

$GPRMC,170922.000,A,5742.007,N,01159.297,E,0.000,45.0,100724,,,A*53

$GPHDT,45.0,T*04

$GPVTG,45.0,T,,M,0,N,0.0,K*4F

$GPZDA,170922.000,10,07,2024,0,0*5B

$GPGGA,170924.00,5742.007,N,01159.297,E,1,05,0.92,30,M,32.5,M,,*71

$GPGSA,A,3,13,11,16,06,22,,,,,,,,1.56,0.92,1.25*0E

$GPGSV,4,1,15,13,32,341,99,10,30,067,67,32,77,246,96,16,17,232,08*7B

$GPGSV,4,2,15,11,55,059,43,22,73,068,64,01,25,248,55,28,27,335,43*7D

$GPGSV,4,3,15,18,07,171,20,25,24,165,09,12,44,036,56,02,38,282,10*7E

$GPGSV,4,4,15,21,11,066,65,06,83,155,12,26,84,312,39*40

$GPGLL,5742.007,N,01159.297,E,170924.000,A,A*53

$GPRMC,170924.000,A,5742.007,N,01159.297,E,0.000,45.0,100724,,,A*55

$GPHDT,45.0,T*04

$GPVTG,45.0,T,,M,0,N,0.0,K*4F

$GPZDA,170924.000,10,07,2024,0,0*5D

$GPGGA,170925.00,5742.007,N,01159.297,E,1,05,0.92,30,M,32.5,M,,*70

$GPGSA,A,3,13,11,16,06,22,,,,,,,,1.56,0.92,1.25*0E

$GPGSV,4,1,15,13,32,341,99,10,30,067,67,32,77,246,96,16,17,232,08*7B

$GPGSV,4,2,15,11,55,059,43,22,73,068,64,01,25,248,55,28,27,335,43*7D

$GPGSV,4,3,15,18,07,171,20,25,24,165,09,12,44,036,56,02,38,282,10*7E

$GPGSV,4,4,15,21,11,066,65,06,83,155,12,26,84,312,39*40

$GPGLL,5742.007,N,01159.297,E,170925.000,A,A*52

$GPRMC,170925.000,A,5742.007,N,01159.297,E,0.000,45.0,100724,,,A*54

$GPHDT,45.0,T*04

$GPVTG,45.0,T,,M,0,N,0.0,K*4F

$GPZDA,170925.000,10,07,2024,0,0*5C

$GPGGA,170926.00,5742.007,N,01159.297,E,1,05,0.92,30.5,M,33.0,M,,*6C

$GPGSA,A,3,13,11,16,06,22,,,,,,,,1.56,0.92,1.25*0E

$GPGSV,4,1,15,13,32,341,99,10,30,067,67,32,77,246,96,16,17,232,08*7B

$GPGSV,4,2,15,11,55,059,43,22,73,068,64,01,25,248,55,28,27,335,43*7D

$GPGSV,4,3,15,18,07,171,20,25,24,165,09,12,44,036,56,02,38,282,10*7E

$GPGSV,4,4,15,21,11,066,65,06,83,155,12,26,84,312,39*40

$GPGLL,5742.007,N,01159.297,E,170926.000,A,A*51

$GPRMC,170926.000,A,5742.007,N,01159.297,E,2.000,48.0,100724,,,A*58

$GPHDT,48.0,T*09

$GPVTG,48.0,T,,M,2.0,N,3.7,K*5A

$GPZDA,170926.000,10,07,2024,0,0*5F

$GPGGA,170927.00,5742.007,N,01159.298,E,1,05,0.92,31.0,M,33.5,M,,*63

$GPGSA,A,3,13,11,16,06,22,,,,,,,,1.56,0.92,1.25*0E

$GPGSV,4,1,15,13,32,341,99,10,30,067,67,32,77,246,96,16,17,232,08*7B

$GPGSV,4,2,15,11,55,059,43,22,73,068,64,01,25,248,55,28,27,335,43*7D

$GPGSV,4,3,15,18,07,171,20,25,24,165,09,12,44,036,56,02,38,282,10*7E

$GPGSV,4,4,15,21,11,066,65,06,83,155,12,26,84,312,39*40

$GPGLL,5742.007,N,01159.298,E,170927.000,A,A*5F

$GPRMC,170927.000,A,5742.007,N,01159.298,E,2.000,51.0,100724,,,A*5E

$GPHDT,51.0,T*01

$GPVTG,51.0,T,,M,2.0,N,3.7,K*52

$GPZDA,170927.000,10,07,2024,0,0*5E

$GPGGA,170928.00,5742.007,N,01159.298,E,1,05,0.92,31.5,M,34.0,M,,*6B

$GPGSA,A,3,13,11,16,06,22,,,,,,,,1.56,0.92,1.25*0E

$GPGSV,4,1,15,13,32,341,99,10,30,067,67,32,77,246,96,16,17,232,08*7B

$GPGSV,4,2,15,11,55,059,43,22,73,068,64,01,25,248,55,28,27,335,43*7D

$GPGSV,4,3,15,18,07,171,20,25,24,165,09,12,44,036,56,02,38,282,10*7E

$GPGSV,4,4,15,21,11,066,65,06,83,155,12,26,84,312,39*40

$GPGLL,5742.007,N,01159.298,E,170928.000,A,A*50

$GPRMC,170928.000,A,5742.007,N,01159.298,E,2.000,54.0,100724,,,A*54

$GPHDT,54.0,T*04

$GPVTG,54.0,T,,M,2.0,N,3.7,K*57

$GPZDA,170928.000,10,07,2024,0,0*51

$GPGGA,170929.00,5742.008,N,01159.299,E,1,05,0.92,32.0,M,34.5,M,,*67

$GPGSA,A,3,13,11,16,06,22,,,,,,,,1.56,0.92,1.25*0E

$GPGSV,4,1,15,13,32,341,99,10,30,067,67,32,77,246,96,16,17,232,08*7B

$GPGSV,4,2,15,11,55,059,43,22,73,068,64,01,25,248,55,28,27,335,43*7D

$GPGSV,4,3,15,18,07,171,20,25,24,165,09,12,44,036,56,02,38,282,10*7E

$GPGSV,4,4,15,21,11,066,65,06,83,155,12,26,84,312,39*40

$GPGLL,5742.008,N,01159.299,E,170929.000,A,A*5F

$GPRMC,170929.000,A,5742.008,N,01159.299,E,2.000,57.0,100724,,,A*58

$GPHDT,57.0,T*07

$GPVTG,57.0,T,,M,2.0,N,3.7,K*54

$GPZDA,170929.000,10,07,2024,0,0*50

$GPGGA,170930.00,5742.008,N,01159.300,E,1,05,0.92,32.5,M,35.0,M,,*6F

$GPGSA,A,3,13,11,16,06,22,,,,,,,,1.56,0.92,1.25*0E

$GPGSV,4,1,15,13,32,341,99,10,30,067,67,32,77,246,96,16,17,232,08*7B

$GPGSV,4,2,15,11,55,059,43,22,73,068,64,01,25,248,55,28,27,335,43*7D

$GPGSV,4,3,15,18,07,171,20,25,24,165,09,12,44,036,56,02,38,282,10*7E

$GPGSV,4,4,15,21,11,066,65,06,83,155,12,26,84,312,39*40

$GPGLL,5742.008,N,01159.300,E,170930.000,A,A*56

$GPRMC,170930.000,A,5742.008,N,01159.300,E,2.000,60.0,100724,,,A*55

$GPHDT,60.0,T*03

$GPVTG,60.0,T,,M,2.0,N,3.7,K*50

$GPZDA,170930.000,10,07,2024,0,0*58

$GPGGA,170931.00,5742.008,N,01159.301,E,1,05,0.92,33.0,M,35.5,M,,*6E

$GPGSA,A,3,13,11,16,06,22,,,,,,,,1.56,0.92,1.25*0E

$GPGSV,4,1,15,13,32,341,99,10,30,067,67,32,77,246,96,16,17,232,08*7B

$GPGSV,4,2,15,11,55,059,43,22,73,068,64,01,25,248,55,28,27,335,43*7D

$GPGSV,4,3,15,18,07,171,20,25,24,165,09,12,44,036,56,02,38,282,10*7E

$GPGSV,4,4,15,21,11,066,65,06,83,155,12,26,84,312,39*40

$GPGLL,5742.008,N,01159.301,E,170931.000,A,A*56

$GPRMC,170931.000,A,5742.008,N,01159.301,E,2.000,63.0,100724,,,A*56

$GPHDT,63.0,T*00

$GPVTG,63.0,T,,M,2.0,N,3.7,K*53

$GPZDA,170931.000,10,07,2024,0,0*59

$GPGGA,170932.00,5742.009,N,01159.302,E,1,05,0.92,33.5,M,36.0,M,,*6C

$GPGSA,A,3,13,11,16,06,22,,,,,,,,1.56,0.92,1.25*0E

$GPGSV,4,1,15,13,32,341,99,10,30,067,67,32,77,246,96,16,17,232,08*7B

$GPGSV,4,2,15,11,55,059,43,22,73,068,64,01,25,248,55,28,27,335,43*7D

$GPGSV,4,3,15,18,07,171,20,25,24,165,09,12,44,036,56,02,38,282,10*7E

$GPGSV,4,4,15,21,11,066,65,06,83,155,12,26,84,312,39*40

$GPGLL,5742.009,N,01159.302,E,170932.000,A,A*57

$GPRMC,170932.000,A,5742.009,N,01159.302,E,2.000,66.0,100724,,,A*52

$GPHDT,66.0,T*05

$GPVTG,66.0,T,,M,2.0,N,3.7,K*56

$GPZDA,170932.000,10,07,2024,0,0*5A

$GPGGA,170934.00,5742.009,N,01159.303,E,1,05,0.92,34.0,M,36.5,M,,*6C

$GPGSA,A,3,13,11,16,06,22,,,,,,,,1.56,0.92,1.25*0E

$GPGSV,4,1,15,13,32,341,99,10,30,067,67,32,77,246,96,16,17,232,08*7B

$GPGSV,4,2,15,11,55,059,43,22,73,068,64,01,25,248,55,28,27,335,43*7D

$GPGSV,4,3,15,18,07,171,20,25,24,165,09,12,44,036,56,02,38,282,10*7E

$GPGSV,4,4,15,21,11,066,65,06,83,155,12,26,84,312,39*40

$GPGLL,5742.009,N,01159.303,E,170934.000,A,A*50

$GPRMC,170934.000,A,5742.009,N,01159.303,E,2.000,69.0,100724,,,A*5A

$GPHDT,69.0,T*0A

$GPVTG,69.0,T,,M,2.0,N,3.7,K*59

$GPZDA,170934.000,10,07,2024,0,0*5C

$GPGGA,170935.00,5742.009,N,01159.304,E,1,05,0.92,34.5,M,37.0,M,,*6B

$GPGSA,A,3,13,11,16,06,22,,,,,,,,1.56,0.92,1.25*0E

$GPGSV,4,1,15,13,32,341,99,10,30,067,67,32,77,246,96,16,17,232,08*7B

$GPGSV,4,2,15,11,55,059,43,22,73,068,64,01,25,248,55,28,27,335,43*7D

$GPGSV,4,3,15,18,07,171,20,25,24,165,09,12,44,036,56,02,38,282,10*7E

$GPGSV,4,4,15,21,11,066,65,06,83,155,12,26,84,312,39*40

$GPGLL,5742.009,N,01159.304,E,170935.000,A,A*56

$GPRMC,170935.000,A,5742.009,N,01159.304,E,2.000,72.0,100724,,,A*56

$GPHDT,72.0,T*00

$GPVTG,72.0,T,,M,2.0,N,3.7,K*53

$GPZDA,170935.000,10,07,2024,0,0*5D

$GPGGA,170936.00,5742.009,N,01159.306,E,1,05,0.92,35.0,M,37.5,M,,*6B

$GPGSA,A,3,13,11,16,06,22,,,,,,,,1.56,0.92,1.25*0E

$GPGSV,4,1,15,13,32,341,99,10,30,067,67,32,77,246,96,16,17,232,08*7B

$GPGSV,4,2,15,11,55,059,43,22,73,068,64,01,25,248,55,28,27,335,43*7D

$GPGSV,4,3,15,18,07,171,20,25,24,165,09,12,44,036,56,02,38,282,10*7E

$GPGSV,4,4,15,21,11,066,65,06,83,155,12,26,84,312,39*40

$GPGLL,5742.009,N,01159.306,E,170936.000,A,A*57

$GPRMC,170936.000,A,5742.009,N,01159.306,E,2.000,75.0,100724,,,A*50

$GPHDT,75.0,T*07

$GPVTG,75.0,T,,M,2.0,N,3.7,K*54

$GPZDA,170936.000,10,07,2024,0,0*5E

$GPGGA,170937.00,5742.010,N,01159.307,E,1,05,0.92,35.5,M,38.0,M,,*6C

$GPGSA,A,3,13,11,16,06,22,,,,,,,,1.56,0.92,1.25*0E

$GPGSV,4,1,15,13,32,341,99,10,30,067,67,32,77,246,96,16,17,232,08*7B

$GPGSV,4,2,15,11,55,059,43,22,73,068,64,01,25,248,55,28,27,335,43*7D

$GPGSV,4,3,15,18,07,171,20,25,24,165,09,12,44,036,56,02,38,282,10*7E

$GPGSV,4,4,15,21,11,066,65,06,83,155,12,26,84,312,39*40

$GPGLL,5742.010,N,01159.307,E,170937.000,A,A*5F

$GPRMC,170937.000,A,5742.010,N,01159.307,E,2.000,78.0,100724,,,A*55

$GPHDT,78.0,T*0A

$GPVTG,78.0,T,,M,2.0,N,3.7,K*59

$GPZDA,170937.000,10,07,2024,0,0*5F

$GPGGA,170938.00,5742.010,N,01159.308,E,1,05,0.92,36.0,M,38.5,M,,*6F

$GPGSA,A,3,13,11,16,06,22,,,,,,,,1.56,0.92,1.25*0E

$GPGSV,4,1,15,13,32,341,99,10,30,067,67,32,77,246,96,16,17,232,08*7B

$GPGSV,4,2,15,11,55,059,43,22,73,068,64,01,25,248,55,28,27,335,43*7D

$GPGSV,4,3,15,18,07,171,20,25,24,165,09,12,44,036,56,02,38,282,10*7E

$GPGSV,4,4,15,21,11,066,65,06,83,155,12,26,84,312,39*40

$GPGLL,5742.010,N,01159.308,E,170938.000,A,A*5F

$GPRMC,170938.000,A,5742.010,N,01159.308,E,2.000,81.0,100724,,,A*53

$GPHDT,81.0,T*0C

$GPVTG,81.0,T,,M,2.0,N,3.7,K*5F

$GPZDA,170938.000,10,07,2024,0,0*50

$GPGGA,170939.00,5742.010,N,01159.309,E,1,05,0.92,36.5,M,39.0,M,,*6E

$GPGSA,A,3,13,11,16,06,22,,,,,,,,1.56,0.92,1.25*0E

$GPGSV,4,1,15,13,32,341,99,10,30,067,67,32,77,246,96,16,17,232,08*7B

$GPGSV,4,2,15,11,55,059,43,22,73,068,64,01,25,248,55,28,27,335,43*7D

$GPGSV,4,3,15,18,07,171,20,25,24,165,09,12,44,036,56,02,38,282,10*7E

$GPGSV,4,4,15,21,11,066,65,06,83,155,12,26,84,312,39*40

$GPGLL,5742.010,N,01159.309,E,170939.000,A,A*5F

$GPRMC,170939.000,A,5742.010,N,01159.309,E,2.000,84.0,100724,,,A*56

$GPHDT,84.0,T*09

$GPVTG,84.0,T,,M,2.0,N,3.7,K*5A

$GPZDA,170939.000,10,07,2024,0,0*51

$GPGGA,170940.00,5742.010,N,01159.310,E,1,05,0.92,37.0,M,39.5,M,,*69

$GPGSA,A,3,13,11,16,06,22,,,,,,,,1.56,0.92,1.25*0E

$GPGSV,4,1,15,13,32,341,99,10,30,067,67,32,77,246,96,16,17,232,08*7B

$GPGSV,4,2,15,11,55,059,43,22,73,068,64,01,25,248,55,28,27,335,43*7D

$GPGSV,4,3,15,18,07,171,20,25,24,165,09,12,44,036,56,02,38,282,10*7E

$GPGSV,4,4,15,21,11,066,65,06,83,155,12,26,84,312,39*40

$GPGLL,5742.010,N,01159.310,E,170940.000,A,A*59

$GPRMC,170940.000,A,5742.010,N,01159.310,E,2.000,87.0,100724,,,A*53

$GPHDT,87.0,T*0A

$GPVTG,87.0,T,,M,2.0,N,3.7,K*59

$GPZDA,170940.000,10,07,2024,0,0*5F

$GPGGA,170941.00,5742.010,N,01159.311,E,1,05,0.92,37.5,M,40.0,M,,*67

$GPGSA,A,3,13,11,16,06,22,,,,,,,,1.56,0.92,1.25*0E

$GPGSV,4,1,15,13,32,341,99,10,30,067,67,32,77,246,96,16,17,232,08*7B

$GPGSV,4,2,15,11,55,059,43,22,73,068,64,01,25,248,55,28,27,335,43*7D

$GPGSV,4,3,15,18,07,171,20,25,24,165,09,12,44,036,56,02,38,282,10*7E

$GPGSV,4,4,15,21,11,066,65,06,83,155,12,26,84,312,39*40

$GPGLL,5742.010,N,01159.311,E,170941.000,A,A*59

$GPRMC,170941.000,A,5742.010,N,01159.311,E,2.000,90.0,100724,,,A*55

$GPHDT,90.0,T*0C

$GPVTG,90.0,T,,M,2.0,N,3.7,K*5F

$GPZDA,170941.000,10,07,2024,0,0*5E

$GPGGA,170942.00,5742.010,N,01159.312,E,1,05,0.92,38.0,M,40.5,M,,*68

$GPGSA,A,3,13,11,16,06,22,,,,,,,,1.56,0.92,1.25*0E

$GPGSV,4,1,15,13,32,341,99,10,30,067,67,32,77,246,96,16,17,232,08*7B

$GPGSV,4,2,15,11,55,059,43,22,73,068,64,01,25,248,55,28,27,335,43*7D

$GPGSV,4,3,15,18,07,171,20,25,24,165,09,12,44,036,56,02,38,282,10*7E

$GPGSV,4,4,15,21,11,066,65,06,83,155,12,26,84,312,39*40

$GPGLL,5742.010,N,01159.312,E,170942.000,A,A*59

$GPRMC,170942.000,A,5742.010,N,01159.312,E,2.000,90.0,100724,,,A*55

$GPHDT,90.0,T*0C

$GPVTG,90.0,T,,M,2.0,N,3.7,K*5F

$GPZDA,170942.000,10,07,2024,0,0*5D

$GPGGA,170943.00,5742.010,N,01159.313,E,1,05,0.92,38.5,M,41.0,M,,*69

$GPGSA,A,3,13,11,16,06,22,,,,,,,,1.56,0.92,1.25*0E

$GPGSV,4,1,15,13,32,341,99,10,30,067,67,32,77,246,96,16,17,232,08*7B

$GPGSV,4,2,15,11,55,059,43,22,73,068,64,01,25,248,55,28,27,335,43*7D

$GPGSV,4,3,15,18,07,171,20,25,24,165,09,12,44,036,56,02,38,282,10*7E

$GPGSV,4,4,15,21,11,066,65,06,83,155,12,26,84,312,39*40

$GPGLL,5742.010,N,01159.313,E,170943.000,A,A*59

$GPRMC,170943.000,A,5742.010,N,01159.313,E,2.000,90.0,100724,,,A*55

$GPHDT,90.0,T*0C

$GPVTG,90.0,T,,M,2.0,N,3.7,K*5F

$GPZDA,170943.000,10,07,2024,0,0*5C

$GPGGA,170945.00,5742.010,N,01159.315,E,1,05,0.92,39.0,M,41.5,M,,*68

$GPGSA,A,3,13,11,16,06,22,,,,,,,,1.56,0.92,1.25*0E

$GPGSV,4,1,15,13,32,341,99,10,30,067,67,32,77,246,96,16,17,232,08*7B

$GPGSV,4,2,15,11,55,059,43,22,73,068,64,01,25,248,55,28,27,335,43*7D

$GPGSV,4,3,15,18,07,171,20,25,24,165,09,12,44,036,56,02,38,282,10*7E

$GPGSV,4,4,15,21,11,066,65,06,83,155,12,26,84,312,39*40

$GPGLL,5742.010,N,01159.315,E,170945.000,A,A*59

$GPRMC,170945.000,A,5742.010,N,01159.315,E,2.000,90.0,100724,,,A*55

$GPHDT,90.0,T*0C

$GPVTG,90.0,T,,M,2.0,N,3.7,K*5F

$GPZDA,170945.000,10,07,2024,0,0*5A

$GPGGA,170946.00,5742.010,N,01159.316,E,1,05,0.92,39.5,M,42.0,M,,*6B

$GPGSA,A,3,13,11,16,06,22,,,,,,,,1.56,0.92,1.25*0E

$GPGSV,4,1,15,13,32,341,99,10,30,067,67,32,77,246,96,16,17,232,08*7B

$GPGSV,4,2,15,11,55,059,43,22,73,068,64,01,25,248,55,28,27,335,43*7D

$GPGSV,4,3,15,18,07,171,20,25,24,165,09,12,44,036,56,02,38,282,10*7E

$GPGSV,4,4,15,21,11,066,65,06,83,155,12,26,84,312,39*40

$GPGLL,5742.010,N,01159.316,E,170946.000,A,A*59

$GPRMC,170946.000,A,5742.010,N,01159.316,E,2.000,90.0,100724,,,A*55

$GPHDT,90.0,T*0C

$GPVTG,90.0,T,,M,2.0,N,3.7,K*5F

$GPZDA,170946.000,10,07,2024,0,0*59

$GPGGA,170947.00,5742.010,N,01159.317,E,1,05,0.92,40.0,M,42.5,M,,*65

$GPGSA,A,3,13,11,16,06,22,,,,,,,,1.56,0.92,1.25*0E

$GPGSV,4,1,15,13,32,341,99,10,30,067,67,32,77,246,96,16,17,232,08*7B

$GPGSV,4,2,15,11,55,059,43,22,73,068,64,01,25,248,55,28,27,335,43*7D

$GPGSV,4,3,15,18,07,171,20,25,24,165,09,12,44,036,56,02,38,282,10*7E

$GPGSV,4,4,15,21,11,066,65,06,83,155,12,26,84,312,39*40

$GPGLL,5742.010,N,01159.317,E,170947.000,A,A*59

$GPRMC,170947.000,A,5742.010,N,01159.317,E,2.000,90.0,100724,,,A*55

$GPHDT,90.0,T*0C

$GPVTG,90.0,T,,M,2.0,N,3.7,K*5F

$GPZDA,170947.000,10,07,2024,0,0*58

$GPGGA,170948.00,5742.010,N,01159.318,E,1,05,0.92,40.5,M,43.0,M,,*64

$GPGSA,A,3,13,11,16,06,22,,,,,,,,1.56,0.92,1.25*0E

$GPGSV,4,1,15,13,32,341,99,10,30,067,67,32,77,246,96,16,17,232,08*7B

$GPGSV,4,2,15,11,55,059,43,22,73,068,64,01,25,248,55,28,27,335,43*7D

$GPGSV,4,3,15,18,07,171,20,25,24,165,09,12,44,036,56,02,38,282,10*7E

$GPGSV,4,4,15,21,11,066,65,06,83,155,12,26,84,312,39*40

$GPGLL,5742.010,N,01159.318,E,170948.000,A,A*59

$GPRMC,170948.000,A,5742.010,N,01159.318,E,2.000,90.0,100724,,,A*55

$GPHDT,90.0,T*0C

$GPVTG,90.0,T,,M,2.0,N,3.7,K*5F

$GPZDA,170948.000,10,07,2024,0,0*57

$GPGGA,170949.00,5742.010,N,01159.319,E,1,05,0.92,41.0,M,43.5,M,,*65

$GPGSA,A,3,13,11,16,06,22,,,,,,,,1.56,0.92,1.25*0E

$GPGSV,4,1,15,13,32,341,99,10,30,067,67,32,77,246,96,16,17,232,08*7B

$GPGSV,4,2,15,11,55,059,43,22,73,068,64,01,25,248,55,28,27,335,43*7D

$GPGSV,4,3,15,18,07,171,20,25,24,165,09,12,44,036,56,02,38,282,10*7E

$GPGSV,4,4,15,21,11,066,65,06,83,155,12,26,84,312,39*40

$GPGLL,5742.010,N,01159.319,E,170949.000,A,A*59

$GPRMC,170949.000,A,5742.010,N,01159.319,E,2.000,90.0,100724,,,A*55

$GPHDT,90.0,T*0C

$GPVTG,90.0,T,,M,2.0,N,3.7,K*5F

$GPZDA,170949.000,10,07,2024,0,0*56

$GPGGA,170950.00,5742.010,N,01159.320,E,1,05,0.92,41.5,M,44.0,M,,*60

$GPGSA,A,3,13,11,16,06,22,,,,,,,,1.56,0.92,1.25*0E

$GPGSV,4,1,15,13,32,341,99,10,30,067,67,32,77,246,96,16,17,232,08*7B

$GPGSV,4,2,15,11,55,059,43,22,73,068,64,01,25,248,55,28,27,335,43*7D

$GPGSV,4,3,15,18,07,171,20,25,24,165,09,12,44,036,56,02,38,282,10*7E

$GPGSV,4,4,15,21,11,066,65,06,83,155,12,26,84,312,39*40

$GPGLL,5742.010,N,01159.320,E,170950.000,A,A*5B

$GPRMC,170950.000,A,5742.010,N,01159.320,E,2.000,90.0,100724,,,A*57

$GPHDT,90.0,T*0C

$GPVTG,90.0,T,,M,2.0,N,3.7,K*5F

$GPZDA,170950.000,10,07,2024,0,0*5E

$GPGGA,170951.00,5742.010,N,01159.321,E,1,05,0.92,42.0,M,44.5,M,,*63

$GPGSA,A,3,13,11,16,06,22,,,,,,,,1.56,0.92,1.25*0E

$GPGSV,4,1,15,13,32,341,99,10,30,067,67,32,77,246,96,16,17,232,08*7B

$GPGSV,4,2,15,11,55,059,43,22,73,068,64,01,25,248,55,28,27,335,43*7D

$GPGSV,4,3,15,18,07,171,20,25,24,165,09,12,44,036,56,02,38,282,10*7E

$GPGSV,4,4,15,21,11,066,65,06,83,155,12,26,84,312,39*40

$GPGLL,5742.010,N,01159.321,E,170951.000,A,A*5B

$GPRMC,170951.000,A,5742.010,N,01159.321,E,2.000,90.0,100724,,,A*57

$GPHDT,90.0,T*0C

$GPVTG,90.0,T,,M,2.0,N,3.7,K*5F

$GPZDA,170951.000,10,07,2024,0,0*5F

$GPGGA,170952.00,5742.010,N,01159.323,E,1,05,0.92,42.5,M,45.0,M,,*63

$GPGSA,A,3,13,11,16,06,22,,,,,,,,1.56,0.92,1.25*0E

$GPGSV,4,1,15,13,32,341,99,10,30,067,67,32,77,246,96,16,17,232,08*7B

$GPGSV,4,2,15,11,55,059,43,22,73,068,64,01,25,248,55,28,27,335,43*7D

$GPGSV,4,3,15,18,07,171,20,25,24,165,09,12,44,036,56,02,38,282,10*7E

$GPGSV,4,4,15,21,11,066,65,06,83,155,12,26,84,312,39*40

$GPGLL,5742.010,N,01159.323,E,170952.000,A,A*5A

$GPRMC,170952.000,A,5742.010,N,01159.323,E,2.000,90.0,100724,,,A*56

$GPHDT,90.0,T*0C

$GPVTG,90.0,T,,M,2.0,N,3.7,K*5F

$GPZDA,170952.000,10,07,2024,0,0*5C

$GPGGA,170953.00,5742.010,N,01159.324,E,1,05,0.92,43.0,M,45.5,M,,*64

$GPGSA,A,3,13,11,16,06,22,,,,,,,,1.56,0.92,1.25*0E

$GPGSV,4,1,15,13,32,341,99,10,30,067,67,32,77,246,96,16,17,232,08*7B

$GPGSV,4,2,15,11,55,059,43,22,73,068,64,01,25,248,55,28,27,335,43*7D

$GPGSV,4,3,15,18,07,171,20,25,24,165,09,12,44,036,56,02,38,282,10*7E

$GPGSV,4,4,15,21,11,066,65,06,83,155,12,26,84,312,39*40

$GPGLL,5742.010,N,01159.324,E,170953.000,A,A*5C

$GPRMC,170953.000,A,5742.010,N,01159.324,E,2.000,90.0,100724,,,A*50

$GPHDT,90.0,T*0C

$GPVTG,90.0,T,,M,2.0,N,3.7,K*5F

$GPZDA,170953.000,10,07,2024,0,0*5D

$GPGGA,170954.00,5742.010,N,01159.325,E,1,05,0.92,43.5,M,46.0,M,,*61

$GPGSA,A,3,13,11,16,06,22,,,,,,,,1.56,0.92,1.25*0E

$GPGSV,4,1,15,13,32,341,99,10,30,067,67,32,77,246,96,16,17,232,08*7B

$GPGSV,4,2,15,11,55,059,43,22,73,068,64,01,25,248,55,28,27,335,43*7D

$GPGSV,4,3,15,18,07,171,20,25,24,165,09,12,44,036,56,02,38,282,10*7E

$GPGSV,4,4,15,21,11,066,65,06,83,155,12,26,84,312,39*40

$GPGLL,5742.010,N,01159.325,E,170954.000,A,A*5A

$GPRMC,170954.000,A,5742.010,N,01159.325,E,2.000,90.0,100724,,,A*56

$GPHDT,90.0,T*0C

$GPVTG,90.0,T,,M,2.0,N,3.7,K*5F

$GPZDA,170954.000,10,07,2024,0,0*5A

$GPGGA,170956.00,5742.010,N,01159.326,E,1,05,0.92,44.0,M,46.5,M,,*67

$GPGSA,A,3,13,11,16,06,22,,,,,,,,1.56,0.92,1.25*0E

$GPGSV,4,1,15,13,32,341,99,10,30,067,67,32,77,246,96,16,17,232,08*7B

$GPGSV,4,2,15,11,55,059,43,22,73,068,64,01,25,248,55,28,27,335,43*7D

$GPGSV,4,3,15,18,07,171,20,25,24,165,09,12,44,036,56,02,38,282,10*7E

$GPGSV,4,4,15,21,11,066,65,06,83,155,12,26,84,312,39*40

$GPGLL,5742.010,N,01159.326,E,170956.000,A,A*5B

$GPRMC,170956.000,A,5742.010,N,01159.326,E,2.000,90.0,100724,,,A*57

$GPHDT,90.0,T*0C

$GPVTG,90.0,T,,M,2.0,N,3.7,K*5F

$GPZDA,170956.000,10,07,2024,0,0*58

$GPGGA,170957.00,5742.010,N,01159.327,E,1,05,0.92,44.5,M,47.0,M,,*66

$GPGSA,A,3,13,11,16,06,22,,,,,,,,1.56,0.92,1.25*0E

$GPGSV,4,1,15,13,32,341,99,10,30,067,67,32,77,246,96,16,17,232,08*7B

$GPGSV,4,2,15,11,55,059,43,22,73,068,64,01,25,248,55,28,27,335,43*7D

$GPGSV,4,3,15,18,07,171,20,25,24,165,09,12,44,036,56,02,38,282,10*7E

$GPGSV,4,4,15,21,11,066,65,06,83,155,12,26,84,312,39*40

$GPGLL,5742.010,N,01159.327,E,170957.000,A,A*5B

$GPRMC,170957.000,A,5742.010,N,01159.327,E,2.000,90.0,100724,,,A*57

$GPHDT,90.0,T*0C

$GPVTG,90.0,T,,M,2.0,N,3.7,K*5F

$GPZDA,170957.000,10,07,2024,0,0*59

$GPGGA,170958.00,5742.010,N,01159.328,E,1,05,0.92,45.0,M,47.5,M,,*67

$GPGSA,A,3,13,11,16,06,22,,,,,,,,1.56,0.92,1.25*0E

$GPGSV,4,1,15,13,32,341,99,10,30,067,67,32,77,246,96,16,17,232,08*7B

$GPGSV,4,2,15,11,55,059,43,22,73,068,64,01,25,248,55,28,27,335,43*7D

$GPGSV,4,3,15,18,07,171,20,25,24,165,09,12,44,036,56,02,38,282,10*7E

$GPGSV,4,4,15,21,11,066,65,06,83,155,12,26,84,312,39*40

$GPGLL,5742.010,N,01159.328,E,170958.000,A,A*5B

$GPRMC,170958.000,A,5742.010,N,01159.328,E,2.000,90.0,100724,,,A*57

$GPHDT,90.0,T*0C

$GPVTG,90.0,T,,M,2.0,N,3.7,K*5F

$GPZDA,170958.000,10,07,2024,0,0*56

$GPGGA,170959.00,5742.010,N,01159.329,E,1,05,0.92,45.0,M,47.5,M,,*67

$GPGSA,A,3,13,11,16,06,22,,,,,,,,1.56,0.92,1.25*0E

$GPGSV,4,1,15,13,32,341,99,10,30,067,67,32,77,246,96,16,17,232,08*7B

$GPGSV,4,2,15,11,55,059,43,22,73,068,64,01,25,248,55,28,27,335,43*7D

$GPGSV,4,3,15,18,07,171,20,25,24,165,09,12,44,036,56,02,38,282,10*7E

$GPGSV,4,4,15,21,11,066,65,06,83,155,12,26,84,312,39*40

$GPGLL,5742.010,N,01159.329,E,170959.000,A,A*5B

$GPRMC,170959.000,A,5742.010,N,01159.329,E,2.000,90.0,100724,,,A*57

$GPHDT,90.0,T*0C

$GPVTG,90.0,T,,M,2.0,N,3.7,K*5F

$GPZDA,170959.000,10,07,2024,0,0*57

$GPGGA,171000.00,5742.010,N,01159.331,E,1,05,0.92,45.0,M,47.5,M,,*6A

$GPGSA,A,3,13,11,16,06,22,,,,,,,,1.56,0.92,1.25*0E

$GPGSV,4,1,15,13,32,341,99,10,30,067,67,32,77,246,96,16,17,232,08*7B

$GPGSV,4,2,15,11,55,059,43,22,73,068,64,01,25,248,55,28,27,335,43*7D

$GPGSV,4,3,15,18,07,171,20,25,24,165,09,12,44,036,56,02,38,282,10*7E

$GPGSV,4,4,15,21,11,066,65,06,83,155,12,26,84,312,39*40

$GPGLL,5742.010,N,01159.331,E,171000.000,A,A*56

$GPRMC,171000.000,A,5742.010,N,01159.331,E,2.000,90.0,100724,,,A*5A

$GPHDT,90.0,T*0C

$GPVTG,90.0,T,,M,2.0,N,3.7,K*5F

$GPZDA,171000.000,10,07,2024,0,0*53

$GPGGA,171001.00,5742.010,N,01159.332,E,1,05,0.92,45.0,M,47.5,M,,*68

$GPGSA,A,3,13,11,16,06,22,,,,,,,,1.56,0.92,1.25*0E

$GPGSV,4,1,15,13,32,341,99,10,30,067,67,32,77,246,96,16,17,232,08*7B

$GPGSV,4,2,15,11,55,059,43,22,73,068,64,01,25,248,55,28,27,335,43*7D

$GPGSV,4,3,15,18,07,171,20,25,24,165,09,12,44,036,56,02,38,282,10*7E

$GPGSV,4,4,15,21,11,066,65,06,83,155,12,26,84,312,39*40

$GPGLL,5742.010,N,01159.332,E,171001.000,A,A*54

$GPRMC,171001.000,A,5742.010,N,01159.332,E,2.000,90.0,100724,,,A*58

$GPHDT,90.0,T*0C

$GPVTG,90.0,T,,M,2.0,N,3.7,K*5F

$GPZDA,171001.000,10,07,2024,0,0*52

$GPGGA,171002.00,5742.010,N,01159.333,E,1,05,0.92,45.0,M,47.5,M,,*6A

$GPGSA,A,3,13,11,16,06,22,,,,,,,,1.56,0.92,1.25*0E

$GPGSV,4,1,15,13,32,341,99,10,30,067,67,32,77,246,96,16,17,232,08*7B

$GPGSV,4,2,15,11,55,059,43,22,73,068,64,01,25,248,55,28,27,335,43*7D

$GPGSV,4,3,15,18,07,171,20,25,24,165,09,12,44,036,56,02,38,282,10*7E

$GPGSV,4,4,15,21,11,066,65,06,83,155,12,26,84,312,39*40

$GPGLL,5742.010,N,01159.333,E,171002.000,A,A*56

$GPRMC,171002.000,A,5742.010,N,01159.333,E,2.000,90.0,100724,,,A*5A

$GPHDT,90.0,T*0C

$GPVTG,90.0,T,,M,2.0,N,3.7,K*5F

$GPZDA,171002.000,10,07,2024,0,0*51

$GPGGA,171003.00,5742.010,N,01159.334,E,1,05,0.92,45.0,M,47.5,M,,*6C

$GPGSA,A,3,13,11,16,06,22,,,,,,,,1.56,0.92,1.25*0E

$GPGSV,4,1,15,13,32,341,99,10,30,067,67,32,77,246,96,16,17,232,08*7B

$GPGSV,4,2,15,11,55,059,43,22,73,068,64,01,25,248,55,28,27,335,43*7D

$GPGSV,4,3,15,18,07,171,20,25,24,165,09,12,44,036,56,02,38,282,10*7E

$GPGSV,4,4,15,21,11,066,65,06,83,155,12,26,84,312,39*40

$GPGLL,5742.010,N,01159.334,E,171003.000,A,A*50

$GPRMC,171003.000,A,5742.010,N,01159.334,E,2.000,90.0,100724,,,A*5C

$GPHDT,90.0,T*0C

$GPVTG,90.0,T,,M,2.0,N,3.7,K*5F

$GPZDA,171003.000,10,07,2024,0,0*50

$GPGGA,171004.00,5742.010,N,01159.335,E,1,05,0.92,45.0,M,47.5,M,,*6A

$GPGSA,A,3,13,11,16,06,22,,,,,,,,1.56,0.92,1.25*0E

$GPGSV,4,1,15,13,32,341,99,10,30,067,67,32,77,246,96,16,17,232,08*7B

$GPGSV,4,2,15,11,55,059,43,22,73,068,64,01,25,248,55,28,27,335,43*7D

$GPGSV,4,3,15,18,07,171,20,25,24,165,09,12,44,036,56,02,38,282,10*7E

$GPGSV,4,4,15,21,11,066,65,06,83,155,12,26,84,312,39*40

$GPGLL,5742.010,N,01159.335,E,171004.000,A,A*56

$GPRMC,171004.000,A,5742.010,N,01159.335,E,2.000,90.0,100724,,,A*5A

$GPHDT,90.0,T*0C

$GPVTG,90.0,T,,M,2.0,N,3.7,K*5F

$GPZDA,171004.000,10,07,2024,0,0*57

$GPGGA,171005.00,5742.010,N,01159.336,E,1,05,0.92,45.0,M,47.5,M,,*68

$GPGSA,A,3,13,11,16,06,22,,,,,,,,1.56,0.92,1.25*0E

$GPGSV,4,1,15,13,32,341,99,10,30,067,67,32,77,246,96,16,17,232,08*7B

$GPGSV,4,2,15,11,55,059,43,22,73,068,64,01,25,248,55,28,27,335,43*7D

$GPGSV,4,3,15,18,07,171,20,25,24,165,09,12,44,036,56,02,38,282,10*7E

$GPGSV,4,4,15,21,11,066,65,06,83,155,12,26,84,312,39*40

$GPGLL,5742.010,N,01159.336,E,171005.000,A,A*54

$GPRMC,171005.000,A,5742.010,N,01159.336,E,2.000,90.0,100724,,,A*58

$GPHDT,90.0,T*0C

$GPVTG,90.0,T,,M,2.0,N,3.7,K*5F

$GPZDA,171005.000,10,07,2024,0,0*56

$GPGGA,171007.00,5742.010,N,01159.337,E,1,05,0.92,45.0,M,47.5,M,,*6B

$GPGSA,A,3,13,11,16,06,22,,,,,,,,1.56,0.92,1.25*0E

$GPGSV,4,1,15,13,32,341,99,10,30,067,67,32,77,246,96,16,17,232,08*7B

$GPGSV,4,2,15,11,55,059,43,22,73,068,64,01,25,248,55,28,27,335,43*7D

$GPGSV,4,3,15,18,07,171,20,25,24,165,09,12,44,036,56,02,38,282,10*7E

$GPGSV,4,4,15,21,11,066,65,06,83,155,12,26,84,312,39*40

$GPGLL,5742.010,N,01159.337,E,171007.000,A,A*57

$GPRMC,171007.000,A,5742.010,N,01159.337,E,2.000,90.0,100724,,,A*5B

$GPHDT,90.0,T*0C

$GPVTG,90.0,T,,M,2.0,N,3.7,K*5F

$GPZDA,171007.000,10,07,2024,0,0*54

$GPGGA,171008.00,5742.010,N,01159.339,E,1,05,0.92,45.0,M,47.5,M,,*6A

$GPGSA,A,3,13,11,16,06,22,,,,,,,,1.56,0.92,1.25*0E

$GPGSV,4,1,15,13,32,341,99,10,30,067,67,32,77,246,96,16,17,232,08*7B

$GPGSV,4,2,15,11,55,059,43,22,73,068,64,01,25,248,55,28,27,335,43*7D

$GPGSV,4,3,15,18,07,171,20,25,24,165,09,12,44,036,56,02,38,282,10*7E

$GPGSV,4,4,15,21,11,066,65,06,83,155,12,26,84,312,39*40

$GPGLL,5742.010,N,01159.339,E,171008.000,A,A*56

$GPRMC,171008.000,A,5742.010,N,01159.339,E,2.000,90.0,100724,,,A*5A

$GPHDT,90.0,T*0C

$GPVTG,90.0,T,,M,2.0,N,3.7,K*5F

$GPZDA,171008.000,10,07,2024,0,0*5B

$GPGGA,171009.00,5742.010,N,01159.340,E,1,05,0.92,45.0,M,47.5,M,,*65

$GPGSA,A,3,13,11,16,06,22,,,,,,,,1.56,0.92,1.25*0E

$GPGSV,4,1,15,13,32,341,99,10,30,067,67,32,77,246,96,16,17,232,08*7B

$GPGSV,4,2,15,11,55,059,43,22,73,068,64,01,25,248,55,28,27,335,43*7D

$GPGSV,4,3,15,18,07,171,20,25,24,165,09,12,44,036,56,02,38,282,10*7E

$GPGSV,4,4,15,21,11,066,65,06,83,155,12,26,84,312,39*40

$GPGLL,5742.010,N,01159.340,E,171009.000,A,A*59

$GPRMC,171009.000,A,5742.010,N,01159.340,E,2.000,90.0,100724,,,A*55

$GPHDT,90.0,T*0C

$GPVTG,90.0,T,,M,2.0,N,3.7,K*5F

$GPZDA,171009.000,10,07,2024,0,0*5A

$GPGGA,171010.00,5742.010,N,01159.341,E,1,05,0.92,45.0,M,47.5,M,,*6C

$GPGSA,A,3,13,11,16,06,22,,,,,,,,1.56,0.92,1.25*0E

$GPGSV,4,1,15,13,32,341,99,10,30,067,67,32,77,246,96,16,17,232,08*7B

$GPGSV,4,2,15,11,55,059,43,22,73,068,64,01,25,248,55,28,27,335,43*7D

$GPGSV,4,3,15,18,07,171,20,25,24,165,09,12,44,036,56,02,38,282,10*7E

$GPGSV,4,4,15,21,11,066,65,06,83,155,12,26,84,312,39*40

$GPGLL,5742.010,N,01159.341,E,171010.000,A,A*50

$GPRMC,171010.000,A,5742.010,N,01159.341,E,2.000,90.0,100724,,,A*5C

$GPHDT,90.0,T*0C

$GPVTG,90.0,T,,M,2.0,N,3.7,K*5F

$GPZDA,171010.000,10,07,2024,0,0*52

$GPGGA,171011.00,5742.010,N,01159.342,E,1,05,0.92,45.0,M,47.5,M,,*6E

$GPGSA,A,3,13,11,16,06,22,,,,,,,,1.56,0.92,1.25*0E

$GPGSV,4,1,15,13,32,341,99,10,30,067,67,32,77,246,96,16,17,232,08*7B

$GPGSV,4,2,15,11,55,059,43,22,73,068,64,01,25,248,55,28,27,335,43*7D

$GPGSV,4,3,15,18,07,171,20,25,24,165,09,12,44,036,56,02,38,282,10*7E

$GPGSV,4,4,15,21,11,066,65,06,83,155,12,26,84,312,39*40

$GPGLL,5742.010,N,01159.342,E,171011.000,A,A*52

$GPRMC,171011.000,A,5742.010,N,01159.342,E,2.000,90.0,100724,,,A*5E

$GPHDT,90.0,T*0C

$GPVTG,90.0,T,,M,2.0,N,3.7,K*5F

$GPZDA,171011.000,10,07,2024,0,0*53

$GPGGA,171012.00,5742.010,N,01159.343,E,1,05,0.92,45.0,M,47.5,M,,*6C

$GPGSA,A,3,13,11,16,06,22,,,,,,,,1.56,0.92,1.25*0E

$GPGSV,4,1,15,13,32,341,99,10,30,067,67,32,77,246,96,16,17,232,08*7B

$GPGSV,4,2,15,11,55,059,43,22,73,068,64,01,25,248,55,28,27,335,43*7D

$GPGSV,4,3,15,18,07,171,20,25,24,165,09,12,44,036,56,02,38,282,10*7E

$GPGSV,4,4,15,21,11,066,65,06,83,155,12,26,84,312,39*40

$GPGLL,5742.010,N,01159.343,E,171012.000,A,A*50

$GPRMC,171012.000,A,5742.010,N,01159.343,E,2.000,90.0,100724,,,A*5C

$GPHDT,90.0,T*0C

$GPVTG,90.0,T,,M,2.0,N,3.7,K*5F

$GPZDA,171012.000,10,07,2024,0,0*50

$GPGGA,171013.00,5742.010,N,01159.344,E,1,05,0.92,45.0,M,47.5,M,,*6A

$GPGSA,A,3,13,11,16,06,22,,,,,,,,1.56,0.92,1.25*0E

$GPGSV,4,1,15,13,32,341,99,10,30,067,67,32,77,246,96,16,17,232,08*7B

$GPGSV,4,2,15,11,55,059,43,22,73,068,64,01,25,248,55,28,27,335,43*7D

$GPGSV,4,3,15,18,07,171,20,25,24,165,09,12,44,036,56,02,38,282,10*7E

$GPGSV,4,4,15,21,11,066,65,06,83,155,12,26,84,312,39*40

$GPGLL,5742.010,N,01159.344,E,171013.000,A,A*56

$GPRMC,171013.000,A,5742.010,N,01159.344,E,2.000,90.0,100724,,,A*5A

$GPHDT,90.0,T*0C

$GPVTG,90.0,T,,M,2.0,N,3.7,K*5F

$GPZDA,171013.000,10,07,2024,0,0*51

$GPGGA,171014.00,5742.010,N,01159.345,E,1,05,0.92,45.0,M,47.5,M,,*6C

$GPGSA,A,3,13,11,16,06,22,,,,,,,,1.56,0.92,1.25*0E

$GPGSV,4,1,15,13,32,341,99,10,30,067,67,32,77,246,96,16,17,232,08*7B

$GPGSV,4,2,15,11,55,059,43,22,73,068,64,01,25,248,55,28,27,335,43*7D

$GPGSV,4,3,15,18,07,171,20,25,24,165,09,12,44,036,56,02,38,282,10*7E

$GPGSV,4,4,15,21,11,066,65,06,83,155,12,26,84,312,39*40

$GPGLL,5742.010,N,01159.345,E,171014.000,A,A*50

$GPRMC,171014.000,A,5742.010,N,01159.345,E,2.000,90.0,100724,,,A*5C

$GPHDT,90.0,T*0C

$GPVTG,90.0,T,,M,2.0,N,3.7,K*5F

$GPZDA,171014.000,10,07,2024,0,0*56

$GPGGA,171015.00,5742.010,N,01159.347,E,1,05,0.92,45.0,M,47.5,M,,*6F

$GPGSA,A,3,13,11,16,06,22,,,,,,,,1.56,0.92,1.25*0E

$GPGSV,4,1,15,13,32,341,99,10,30,067,67,32,77,246,96,16,17,232,08*7B

$GPGSV,4,2,15,11,55,059,43,22,73,068,64,01,25,248,55,28,27,335,43*7D

$GPGSV,4,3,15,18,07,171,20,25,24,165,09,12,44,036,56,02,38,282,10*7E

$GPGSV,4,4,15,21,11,066,65,06,83,155,12,26,84,312,39*40

$GPGLL,5742.010,N,01159.347,E,171015.000,A,A*53

$GPRMC,171015.000,A,5742.010,N,01159.347,E,2.000,90.0,100724,,,A*5F

$GPHDT,90.0,T*0C

$GPVTG,90.0,T,,M,2.0,N,3.7,K*5F

$GPZDA,171015.000,10,07,2024,0,0*57

$GPGGA,171016.00,5742.010,N,01159.348,E,1,05,0.92,45.0,M,47.5,M,,*63

$GPGSA,A,3,13,11,16,06,22,,,,,,,,1.56,0.92,1.25*0E

$GPGSV,4,1,15,13,32,341,99,10,30,067,67,32,77,246,96,16,17,232,08*7B

$GPGSV,4,2,15,11,55,059,43,22,73,068,64,01,25,248,55,28,27,335,43*7D

$GPGSV,4,3,15,18,07,171,20,25,24,165,09,12,44,036,56,02,38,282,10*7E

$GPGSV,4,4,15,21,11,066,65,06,83,155,12,26,84,312,39*40

$GPGLL,5742.010,N,01159.348,E,171016.000,A,A*5F

$GPRMC,171016.000,A,5742.010,N,01159.348,E,2.000,90.0,100724,,,A*53

$GPHDT,90.0,T*0C

$GPVTG,90.0,T,,M,2.0,N,3.7,K*5F

$GPZDA,171016.000,10,07,2024,0,0*54

$GPGGA,171018.00,5742.010,N,01159.349,E,1,05,0.92,45.0,M,47.5,M,,*6C

$GPGSA,A,3,13,11,16,06,22,,,,,,,,1.56,0.92,1.25*0E

$GPGSV,4,1,15,13,32,341,99,10,30,067,67,32,77,246,96,16,17,232,08*7B

$GPGSV,4,2,15,11,55,059,43,22,73,068,64,01,25,248,55,28,27,335,43*7D

$GPGSV,4,3,15,18,07,171,20,25,24,165,09,12,44,036,56,02,38,282,10*7E

$GPGSV,4,4,15,21,11,066,65,06,83,155,12,26,84,312,39*40

$GPGLL,5742.010,N,01159.349,E,171018.000,A,A*50

$GPRMC,171018.000,A,5742.010,N,01159.349,E,2.000,90.0,100724,,,A*5C

$GPHDT,90.0,T*0C

$GPVTG,90.0,T,,M,2.0,N,3.7,K*5F

$GPZDA,171018.000,10,07,2024,0,0*5A

$GPGGA,171019.00,5742.010,N,01159.350,E,1,05,0.92,45.0,M,47.5,M,,*65

$GPGSA,A,3,13,11,16,06,22,,,,,,,,1.56,0.92,1.25*0E

$GPGSV,4,1,15,13,32,341,99,10,30,067,67,32,77,246,96,16,17,232,08*7B

$GPGSV,4,2,15,11,55,059,43,22,73,068,64,01,25,248,55,28,27,335,43*7D

$GPGSV,4,3,15,18,07,171,20,25,24,165,09,12,44,036,56,02,38,282,10*7E

$GPGSV,4,4,15,21,11,066,65,06,83,155,12,26,84,312,39*40

$GPGLL,5742.010,N,01159.350,E,171019.000,A,A*59

$GPRMC,171019.000,A,5742.010,N,01159.350,E,2.000,90.0,100724,,,A*55

$GPHDT,90.0,T*0C

$GPVTG,90.0,T,,M,2.0,N,3.7,K*5F

$GPZDA,171019.000,10,07,2024,0,0*5B

$GPGGA,171020.00,5742.010,N,01159.351,E,1,05,0.92,45.0,M,47.5,M,,*6E

$GPGSA,A,3,13,11,16,06,22,,,,,,,,1.56,0.92,1.25*0E

$GPGSV,4,1,15,13,32,341,99,10,30,067,67,32,77,246,96,16,17,232,08*7B

$GPGSV,4,2,15,11,55,059,43,22,73,068,64,01,25,248,55,28,27,335,43*7D

$GPGSV,4,3,15,18,07,171,20,25,24,165,09,12,44,036,56,02,38,282,10*7E

$GPGSV,4,4,15,21,11,066,65,06,83,155,12,26,84,312,39*40

$GPGLL,5742.010,N,01159.351,E,171020.000,A,A*52

$GPRMC,171020.000,A,5742.010,N,01159.351,E,2.000,90.0,100724,,,A*5E

$GPHDT,90.0,T*0C

$GPVTG,90.0,T,,M,2.0,N,3.7,K*5F

$GPZDA,171020.000,10,07,2024,0,0*51

$GPGGA,171021.00,5742.010,N,01159.352,E,1,05,0.92,45.0,M,47.5,M,,*6C

$GPGSA,A,3,13,11,16,06,22,,,,,,,,1.56,0.92,1.25*0E

$GPGSV,4,1,15,13,32,341,99,10,30,067,67,32,77,246,96,16,17,232,08*7B

$GPGSV,4,2,15,11,55,059,43,22,73,068,64,01,25,248,55,28,27,335,43*7D

$GPGSV,4,3,15,18,07,171,20,25,24,165,09,12,44,036,56,02,38,282,10*7E

$GPGSV,4,4,15,21,11,066,65,06,83,155,12,26,84,312,39*40

$GPGLL,5742.010,N,01159.352,E,171021.000,A,A*50

$GPRMC,171021.000,A,5742.010,N,01159.352,E,2.000,90.0,100724,,,A*5C

$GPHDT,90.0,T*0C

$GPVTG,90.0,T,,M,2.0,N,3.7,K*5F

$GPZDA,171021.000,10,07,2024,0,0*50

$GPGGA,171022.00,5742.010,N,01159.353,E,1,05,0.92,45.0,M,47.5,M,,*6E

$GPGSA,A,3,13,11,16,06,22,,,,,,,,1.56,0.92,1.25*0E

$GPGSV,4,1,15,13,32,341,99,10,30,067,67,32,77,246,96,16,17,232,08*7B

$GPGSV,4,2,15,11,55,059,43,22,73,068,64,01,25,248,55,28,27,335,43*7D

$GPGSV,4,3,15,18,07,171,20,25,24,165,09,12,44,036,56,02,38,282,10*7E

$GPGSV,4,4,15,21,11,066,65,06,83,155,12,26,84,312,39*40

$GPGLL,5742.010,N,01159.353,E,171022.000,A,A*52

$GPRMC,171022.000,A,5742.010,N,01159.353,E,2.000,90.0,100724,,,A*5E

$GPHDT,90.0,T*0C

$GPVTG,90.0,T,,M,2.0,N,3.7,K*5F

$GPZDA,171022.000,10,07,2024,0,0*53

$GPGGA,171023.00,5742.010,N,01159.355,E,1,05,0.92,45.0,M,47.5,M,,*69

$GPGSA,A,3,13,11,16,06,22,,,,,,,,1.56,0.92,1.25*0E

$GPGSV,4,1,15,13,32,341,99,10,30,067,67,32,77,246,96,16,17,232,08*7B

$GPGSV,4,2,15,11,55,059,43,22,73,068,64,01,25,248,55,28,27,335,43*7D

$GPGSV,4,3,15,18,07,171,20,25,24,165,09,12,44,036,56,02,38,282,10*7E

$GPGSV,4,4,15,21,11,066,65,06,83,155,12,26,84,312,39*40

$GPGLL,5742.010,N,01159.355,E,171023.000,A,A*55

$GPRMC,171023.000,A,5742.010,N,01159.355,E,2.000,90.0,100724,,,A*59

$GPHDT,90.0,T*0C

$GPVTG,90.0,T,,M,2.0,N,3.7,K*5F

$GPZDA,171023.000,10,07,2024,0,0*52

$GPGGA,171024.00,5742.010,N,01159.356,E,1,05,0.92,45.0,M,47.5,M,,*6D

$GPGSA,A,3,13,11,16,06,22,,,,,,,,1.56,0.92,1.25*0E

$GPGSV,4,1,15,13,32,341,99,10,30,067,67,32,77,246,96,16,17,232,08*7B

$GPGSV,4,2,15,11,55,059,43,22,73,068,64,01,25,248,55,28,27,335,43*7D

$GPGSV,4,3,15,18,07,171,20,25,24,165,09,12,44,036,56,02,38,282,10*7E

$GPGSV,4,4,15,21,11,066,65,06,83,155,12,26,84,312,39*40

$GPGLL,5742.010,N,01159.356,E,171024.000,A,A*51

$GPRMC,171024.000,A,5742.010,N,01159.356,E,2.000,90.0,100724,,,A*5D

$GPHDT,90.0,T*0C

$GPVTG,90.0,T,,M,2.0,N,3.7,K*5F

$GPZDA,171024.000,10,07,2024,0,0*55

$GPGGA,171025.00,5742.010,N,01159.357,E,1,05,0.92,45.0,M,47.5,M,,*6D

$GPGSA,A,3,13,11,16,06,22,,,,,,,,1.56,0.92,1.25*0E

$GPGSV,4,1,15,13,32,341,99,10,30,067,67,32,77,246,96,16,17,232,08*7B

$GPGSV,4,2,15,11,55,059,43,22,73,068,64,01,25,248,55,28,27,335,43*7D

$GPGSV,4,3,15,18,07,171,20,25,24,165,09,12,44,036,56,02,38,282,10*7E

$GPGSV,4,4,15,21,11,066,65,06,83,155,12,26,84,312,39*40

$GPGLL,5742.010,N,01159.357,E,171025.000,A,A*51

$GPRMC,171025.000,A,5742.010,N,01159.357,E,2.000,90.0,100724,,,A*5D

$GPHDT,90.0,T*0C

$GPVTG,90.0,T,,M,2.0,N,3.7,K*5F

$GPZDA,171025.000,10,07,2024,0,0*54

$GPGGA,171026.00,5742.010,N,01159.358,E,1,05,0.92,45.0,M,47.5,M,,*61

$GPGSA,A,3,13,11,16,06,22,,,,,,,,1.56,0.92,1.25*0E

$GPGSV,4,1,15,13,32,341,99,10,30,067,67,32,77,246,96,16,17,232,08*7B

$GPGSV,4,2,15,11,55,059,43,22,73,068,64,01,25,248,55,28,27,335,43*7D

$GPGSV,4,3,15,18,07,171,20,25,24,165,09,12,44,036,56,02,38,282,10*7E

$GPGSV,4,4,15,21,11,066,65,06,83,155,12,26,84,312,39*40

$GPGLL,5742.010,N,01159.358,E,171026.000,A,A*5D

$GPRMC,171026.000,A,5742.010,N,01159.358,E,2.000,90.0,100724,,,A*51

$GPHDT,90.0,T*0C

$GPVTG,90.0,T,,M,2.0,N,3.7,K*5F

$GPZDA,171026.000,10,07,2024,0,0*57

$GPGGA,171028.00,5742.010,N,01159.359,E,1,05,0.92,45.0,M,47.5,M,,*6E

$GPGSA,A,3,13,11,16,06,22,,,,,,,,1.56,0.92,1.25*0E

$GPGSV,4,1,15,13,32,341,99,10,30,067,67,32,77,246,96,16,17,232,08*7B

$GPGSV,4,2,15,11,55,059,43,22,73,068,64,01,25,248,55,28,27,335,43*7D

$GPGSV,4,3,15,18,07,171,20,25,24,165,09,12,44,036,56,02,38,282,10*7E

$GPGSV,4,4,15,21,11,066,65,06,83,155,12,26,84,312,39*40

$GPGLL,5742.010,N,01159.359,E,171028.000,A,A*52

$GPRMC,171028.000,A,5742.010,N,01159.359,E,2.000,90.0,100724,,,A*5E

$GPHDT,90.0,T*0C

$GPVTG,90.0,T,,M,2.0,N,3.7,K*5F

$GPZDA,171028.000,10,07,2024,0,0*59

$GPGGA,171029.00,5742.010,N,01159.360,E,1,05,0.92,45.0,M,47.5,M,,*65

$GPGSA,A,3,13,11,16,06,22,,,,,,,,1.56,0.92,1.25*0E

$GPGSV,4,1,15,13,32,341,99,10,30,067,67,32,77,246,96,16,17,232,08*7B

$GPGSV,4,2,15,11,55,059,43,22,73,068,64,01,25,248,55,28,27,335,43*7D

$GPGSV,4,3,15,18,07,171,20,25,24,165,09,12,44,036,56,02,38,282,10*7E

$GPGSV,4,4,15,21,11,066,65,06,83,155,12,26,84,312,39*40

$GPGLL,5742.010,N,01159.360,E,171029.000,A,A*59

$GPRMC,171029.000,A,5742.010,N,01159.360,E,2.000,90.0,100724,,,A*55

$GPHDT,90.0,T*0C

$GPVTG,90.0,T,,M,2.0,N,3.7,K*5F

$GPZDA,171029.000,10,07,2024,0,0*58

$GPGGA,171030.00,5742.010,N,01159.361,E,1,05,0.92,45.0,M,47.5,M,,*6C

$GPGSA,A,3,13,11,16,06,22,,,,,,,,1.56,0.92,1.25*0E

$GPGSV,4,1,15,13,32,341,99,10,30,067,67,32,77,246,96,16,17,232,08*7B

$GPGSV,4,2,15,11,55,059,43,22,73,068,64,01,25,248,55,28,27,335,43*7D

$GPGSV,4,3,15,18,07,171,20,25,24,165,09,12,44,036,56,02,38,282,10*7E

$GPGSV,4,4,15,21,11,066,65,06,83,155,12,26,84,312,39*40

$GPGLL,5742.010,N,01159.361,E,171030.000,A,A*50

$GPRMC,171030.000,A,5742.010,N,01159.361,E,2.000,90.0,100724,,,A*5C

$GPHDT,90.0,T*0C

$GPVTG,90.0,T,,M,2.0,N,3.7,K*5F

$GPZDA,171030.000,10,07,2024,0,0*50

$GPGGA,171031.00,5742.010,N,01159.363,E,1,05,0.92,45.0,M,47.5,M,,*6F

$GPGSA,A,3,13,11,16,06,22,,,,,,,,1.56,0.92,1.25*0E

$GPGSV,4,1,15,13,32,341,99,10,30,067,67,32,77,246,96,16,17,232,08*7B

$GPGSV,4,2,15,11,55,059,43,22,73,068,64,01,25,248,55,28,27,335,43*7D

$GPGSV,4,3,15,18,07,171,20,25,24,165,09,12,44,036,56,02,38,282,10*7E

$GPGSV,4,4,15,21,11,066,65,06,83,155,12,26,84,312,39*40

$GPGLL,5742.010,N,01159.363,E,171031.000,A,A*53

$GPRMC,171031.000,A,5742.010,N,01159.363,E,2.000,90.0,100724,,,A*5F

$GPHDT,90.0,T*0C

$GPVTG,90.0,T,,M,2.0,N,3.7,K*5F

$GPZDA,171031.000,10,07,2024,0,0*51

$GPGGA,171032.00,5742.010,N,01159.364,E,1,05,0.92,45.0,M,47.5,M,,*6B

$GPGSA,A,3,13,11,16,06,22,,,,,,,,1.56,0.92,1.25*0E

$GPGSV,4,1,15,13,32,341,99,10,30,067,67,32,77,246,96,16,17,232,08*7B

$GPGSV,4,2,15,11,55,059,43,22,73,068,64,01,25,248,55,28,27,335,43*7D

$GPGSV,4,3,15,18,07,171,20,25,24,165,09,12,44,036,56,02,38,282,10*7E

$GPGSV,4,4,15,21,11,066,65,06,83,155,12,26,84,312,39*40

$GPGLL,5742.010,N,01159.364,E,171032.000,A,A*57

$GPRMC,171032.000,A,5742.010,N,01159.364,E,2.000,90.0,100724,,,A*5B

$GPHDT,90.0,T*0C

$GPVTG,90.0,T,,M,2.0,N,3.7,K*5F

$GPZDA,171032.000,10,07,2024,0,0*52

$GPGGA,171033.00,5742.010,N,01159.365,E,1,05,0.92,45.0,M,47.5,M,,*6B

$GPGSA,A,3,13,11,16,06,22,,,,,,,,1.56,0.92,1.25*0E

$GPGSV,4,1,15,13,32,341,99,10,30,067,67,32,77,246,96,16,17,232,08*7B

$GPGSV,4,2,15,11,55,059,43,22,73,068,64,01,25,248,55,28,27,335,43*7D

$GPGSV,4,3,15,18,07,171,20,25,24,165,09,12,44,036,56,02,38,282,10*7E

$GPGSV,4,4,15,21,11,066,65,06,83,155,12,26,84,312,39*40

$GPGLL,5742.010,N,01159.365,E,171033.000,A,A*57

$GPRMC,171033.000,A,5742.010,N,01159.365,E,2.000,90.0,100724,,,A*5B

$GPHDT,90.0,T*0C

$GPVTG,90.0,T,,M,2.0,N,3.7,K*5F

$GPZDA,171033.000,10,07,2024,0,0*53

$GPGGA,171034.00,5742.010,N,01159.366,E,1,05,0.92,45.0,M,47.5,M,,*6F

$GPGSA,A,3,13,11,16,06,22,,,,,,,,1.56,0.92,1.25*0E

$GPGSV,4,1,15,13,32,341,99,10,30,067,67,32,77,246,96,16,17,232,08*7B

$GPGSV,4,2,15,11,55,059,43,22,73,068,64,01,25,248,55,28,27,335,43*7D

$GPGSV,4,3,15,18,07,171,20,25,24,165,09,12,44,036,56,02,38,282,10*7E

$GPGSV,4,4,15,21,11,066,65,06,83,155,12,26,84,312,39*40

$GPGLL,5742.010,N,01159.366,E,171034.000,A,A*53

$GPRMC,171034.000,A,5742.010,N,01159.366,E,2.000,90.0,100724,,,A*5F

$GPHDT,90.0,T*0C

$GPVTG,90.0,T,,M,2.0,N,3.7,K*5F

$GPZDA,171034.000,10,07,2024,0,0*54

$GPGGA,171035.00,5742.010,N,01159.367,E,1,05,0.92,45.0,M,47.5,M,,*6F

$GPGSA,A,3,13,11,16,06,22,,,,,,,,1.56,0.92,1.25*0E

$GPGSV,4,1,15,13,32,341,99,10,30,067,67,32,77,246,96,16,17,232,08*7B

$GPGSV,4,2,15,11,55,059,43,22,73,068,64,01,25,248,55,28,27,335,43*7D

$GPGSV,4,3,15,18,07,171,20,25,24,165,09,12,44,036,56,02,38,282,10*7E

$GPGSV,4,4,15,21,11,066,65,06,83,155,12,26,84,312,39*40

$GPGLL,5742.010,N,01159.367,E,171035.000,A,A*53

$GPRMC,171035.000,A,5742.010,N,01159.367,E,2.000,90.0,100724,,,A*5F

$GPHDT,90.0,T*0C

$GPVTG,90.0,T,,M,2.0,N,3.7,K*5F

$GPZDA,171035.000,10,07,2024,0,0*55

$GPGGA,171036.00,5742.010,N,01159.368,E,1,05,0.92,45.0,M,47.5,M,,*63

$GPGSA,A,3,13,11,16,06,22,,,,,,,,1.56,0.92,1.25*0E

$GPGSV,4,1,15,13,32,341,99,10,30,067,67,32,77,246,96,16,17,232,08*7B

$GPGSV,4,2,15,11,55,059,43,22,73,068,64,01,25,248,55,28,27,335,43*7D

$GPGSV,4,3,15,18,07,171,20,25,24,165,09,12,44,036,56,02,38,282,10*7E

$GPGSV,4,4,15,21,11,066,65,06,83,155,12,26,84,312,39*40

$GPGLL,5742.010,N,01159.368,E,171036.000,A,A*5F

$GPRMC,171036.000,A,5742.010,N,01159.368,E,2.000,90.0,100724,,,A*53

$GPHDT,90.0,T*0C

$GPVTG,90.0,T,,M,2.0,N,3.7,K*5F

$GPZDA,171036.000,10,07,2024,0,0*56

$GPGGA,171037.00,5742.010,N,01159.369,E,1,05,0.92,45.0,M,47.5,M,,*63

$GPGSA,A,3,13,11,16,06,22,,,,,,,,1.56,0.92,1.25*0E

$GPGSV,4,1,15,13,32,341,99,10,30,067,67,32,77,246,96,16,17,232,08*7B

$GPGSV,4,2,15,11,55,059,43,22,73,068,64,01,25,248,55,28,27,335,43*7D

$GPGSV,4,3,15,18,07,171,20,25,24,165,09,12,44,036,56,02,38,282,10*7E

$GPGSV,4,4,15,21,11,066,65,06,83,155,12,26,84,312,39*40

$GPGLL,5742.010,N,01159.369,E,171037.000,A,A*5F

$GPRMC,171037.000,A,5742.010,N,01159.369,E,2.000,90.0,100724,,,A*53

$GPHDT,90.0,T*0C

$GPVTG,90.0,T,,M,2.0,N,3.7,K*5F

$GPZDA,171037.000,10,07,2024,0,0*57

$GPGGA,171039.00,5742.010,N,01159.371,E,1,05,0.92,45.0,M,47.5,M,,*64

$GPGSA,A,3,13,11,16,06,22,,,,,,,,1.56,0.92,1.25*0E

$GPGSV,4,1,15,13,32,341,99,10,30,067,67,32,77,246,96,16,17,232,08*7B

$GPGSV,4,2,15,11,55,059,43,22,73,068,64,01,25,248,55,28,27,335,43*7D

$GPGSV,4,3,15,18,07,171,20,25,24,165,09,12,44,036,56,02,38,282,10*7E

$GPGSV,4,4,15,21,11,066,65,06,83,155,12,26,84,312,39*40

$GPGLL,5742.010,N,01159.371,E,171039.000,A,A*58

$GPRMC,171039.000,A,5742.010,N,01159.371,E,2.000,90.0,100724,,,A*54

$GPHDT,90.0,T*0C

$GPVTG,90.0,T,,M,2.0,N,3.7,K*5F

$GPZDA,171039.000,10,07,2024,0,0*59

$GPGGA,171040.00,5742.010,N,01159.372,E,1,05,0.92,45.0,M,47.5,M,,*69

$GPGSA,A,3,13,11,16,06,22,,,,,,,,1.56,0.92,1.25*0E

$GPGSV,4,1,15,13,32,341,99,10,30,067,67,32,77,246,96,16,17,232,08*7B

$GPGSV,4,2,15,11,55,059,43,22,73,068,64,01,25,248,55,28,27,335,43*7D

$GPGSV,4,3,15,18,07,171,20,25,24,165,09,12,44,036,56,02,38,282,10*7E

$GPGSV,4,4,15,21,11,066,65,06,83,155,12,26,84,312,39*40

$GPGLL,5742.010,N,01159.372,E,171040.000,A,A*55

$GPRMC,171040.000,A,5742.010,N,01159.372,E,2.000,90.0,100724,,,A*59

$GPHDT,90.0,T*0C

$GPVTG,90.0,T,,M,2.0,N,3.7,K*5F

$GPZDA,171040.000,10,07,2024,0,0*57

$GPGGA,171041.00,5742.010,N,01159.373,E,1,05,0.92,45.0,M,47.5,M,,*69

$GPGSA,A,3,13,11,16,06,22,,,,,,,,1.56,0.92,1.25*0E

$GPGSV,4,1,15,13,32,341,99,10,30,067,67,32,77,246,96,16,17,232,08*7B

$GPGSV,4,2,15,11,55,059,43,22,73,068,64,01,25,248,55,28,27,335,43*7D

$GPGSV,4,3,15,18,07,171,20,25,24,165,09,12,44,036,56,02,38,282,10*7E

$GPGSV,4,4,15,21,11,066,65,06,83,155,12,26,84,312,39*40

$GPGLL,5742.010,N,01159.373,E,171041.000,A,A*55

$GPRMC,171041.000,A,5742.010,N,01159.373,E,2.000,90.0,100724,,,A*59

$GPHDT,90.0,T*0C

$GPVTG,90.0,T,,M,2.0,N,3.7,K*5F

$GPZDA,171041.000,10,07,2024,0,0*56

$GPGGA,171042.00,5742.010,N,01159.374,E,1,05,0.92,45.0,M,47.5,M,,*6D

$GPGSA,A,3,13,11,16,06,22,,,,,,,,1.56,0.92,1.25*0E

$GPGSV,4,1,15,13,32,341,99,10,30,067,67,32,77,246,96,16,17,232,08*7B

$GPGSV,4,2,15,11,55,059,43,22,73,068,64,01,25,248,55,28,27,335,43*7D

$GPGSV,4,3,15,18,07,171,20,25,24,165,09,12,44,036,56,02,38,282,10*7E

$GPGSV,4,4,15,21,11,066,65,06,83,155,12,26,84,312,39*40

$GPGLL,5742.010,N,01159.374,E,171042.000,A,A*51

$GPRMC,171042.000,A,5742.010,N,01159.374,E,2.000,90.0,100724,,,A*5D

$GPHDT,90.0,T*0C

$GPVTG,90.0,T,,M,2.0,N,3.7,K*5F

$GPZDA,171042.000,10,07,2024,0,0*55

$GPGGA,171043.00,5742.010,N,01159.375,E,1,05,0.92,45.0,M,47.5,M,,*6D

$GPGSA,A,3,13,11,16,06,22,,,,,,,,1.56,0.92,1.25*0E

$GPGSV,4,1,15,13,32,341,99,10,30,067,67,32,77,246,96,16,17,232,08*7B

$GPGSV,4,2,15,11,55,059,43,22,73,068,64,01,25,248,55,28,27,335,43*7D

$GPGSV,4,3,15,18,07,171,20,25,24,165,09,12,44,036,56,02,38,282,10*7E

$GPGSV,4,4,15,21,11,066,65,06,83,155,12,26,84,312,39*40

$GPGLL,5742.010,N,01159.375,E,171043.000,A,A*51

$GPRMC,171043.000,A,5742.010,N,01159.375,E,2.000,90.0,100724,,,A*5D

$GPHDT,90.0,T*0C

$GPVTG,90.0,T,,M,2.0,N,3.7,K*5F

$GPZDA,171043.000,10,07,2024,0,0*54

$GPGGA,171044.00,5742.010,N,01159.376,E,1,05,0.92,45.0,M,47.5,M,,*69

$GPGSA,A,3,13,11,16,06,22,,,,,,,,1.56,0.92,1.25*0E

$GPGSV,4,1,15,13,32,341,99,10,30,067,67,32,77,246,96,16,17,232,08*7B

$GPGSV,4,2,15,11,55,059,43,22,73,068,64,01,25,248,55,28,27,335,43*7D

$GPGSV,4,3,15,18,07,171,20,25,24,165,09,12,44,036,56,02,38,282,10*7E

$GPGSV,4,4,15,21,11,066,65,06,83,155,12,26,84,312,39*40

$GPGLL,5742.010,N,01159.376,E,171044.000,A,A*55

$GPRMC,171044.000,A,5742.010,N,01159.376,E,2.000,90.0,100724,,,A*59

$GPHDT,90.0,T*0C

$GPVTG,90.0,T,,M,2.0,N,3.7,K*5F

$GPZDA,171044.000,10,07,2024,0,0*53

$GPGGA,171045.00,5742.010,N,01159.377,E,1,05,0.92,45.0,M,47.5,M,,*69

$GPGSA,A,3,13,11,16,06,22,,,,,,,,1.56,0.92,1.25*0E

$GPGSV,4,1,15,13,32,341,99,10,30,067,67,32,77,246,96,16,17,232,08*7B

$GPGSV,4,2,15,11,55,059,43,22,73,068,64,01,25,248,55,28,27,335,43*7D

$GPGSV,4,3,15,18,07,171,20,25,24,165,09,12,44,036,56,02,38,282,10*7E

$GPGSV,4,4,15,21,11,066,65,06,83,155,12,26,84,312,39*40

$GPGLL,5742.010,N,01159.377,E,171045.000,A,A*55

$GPRMC,171045.000,A,5742.010,N,01159.377,E,2.000,90.0,100724,,,A*59

$GPHDT,90.0,T*0C

$GPVTG,90.0,T,,M,2.0,N,3.7,K*5F

$GPZDA,171045.000,10,07,2024,0,0*52

$GPGGA,171046.00,5742.010,N,01159.379,E,1,05,0.92,45.0,M,47.5,M,,*64

$GPGSA,A,3,13,11,16,06,22,,,,,,,,1.56,0.92,1.25*0E

$GPGSV,4,1,15,13,32,341,99,10,30,067,67,32,77,246,96,16,17,232,08*7B

$GPGSV,4,2,15,11,55,059,43,22,73,068,64,01,25,248,55,28,27,335,43*7D

$GPGSV,4,3,15,18,07,171,20,25,24,165,09,12,44,036,56,02,38,282,10*7E

$GPGSV,4,4,15,21,11,066,65,06,83,155,12,26,84,312,39*40

$GPGLL,5742.010,N,01159.379,E,171046.000,A,A*58

$GPRMC,171046.000,A,5742.010,N,01159.379,E,2.000,90.0,100724,,,A*54

$GPHDT,90.0,T*0C

$GPVTG,90.0,T,,M,2.0,N,3.7,K*5F

$GPZDA,171046.000,10,07,2024,0,0*51

$GPGGA,171047.00,5742.010,N,01159.380,E,1,05,0.92,45.0,M,47.5,M,,*63

$GPGSA,A,3,13,11,16,06,22,,,,,,,,1.56,0.92,1.25*0E

$GPGSV,4,1,15,13,32,341,99,10,30,067,67,32,77,246,96,16,17,232,08*7B

$GPGSV,4,2,15,11,55,059,43,22,73,068,64,01,25,248,55,28,27,335,43*7D

$GPGSV,4,3,15,18,07,171,20,25,24,165,09,12,44,036,56,02,38,282,10*7E

$GPGSV,4,4,15,21,11,066,65,06,83,155,12,26,84,312,39*40

$GPGLL,5742.010,N,01159.380,E,171047.000,A,A*5F

$GPRMC,171047.000,A,5742.010,N,01159.380,E,2.000,90.0,100724,,,A*53

$GPHDT,90.0,T*0C

$GPVTG,90.0,T,,M,2.0,N,3.7,K*5F

$GPZDA,171047.000,10,07,2024,0,0*50

$GPGGA,171049.00,5742.010,N,01159.381,E,1,05,0.92,45.0,M,47.5,M,,*6C

$GPGSA,A,3,13,11,16,06,22,,,,,,,,1.56,0.92,1.25*0E

$GPGSV,4,1,15,13,32,341,99,10,30,067,67,32,77,246,96,16,17,232,08*7B

$GPGSV,4,2,15,11,55,059,43,22,73,068,64,01,25,248,55,28,27,335,43*7D

$GPGSV,4,3,15,18,07,171,20,25,24,165,09,12,44,036,56,02,38,282,10*7E

$GPGSV,4,4,15,21,11,066,65,06,83,155,12,26,84,312,39*40

$GPGLL,5742.010,N,01159.381,E,171049.000,A,A*50

$GPRMC,171049.000,A,5742.010,N,01159.381,E,2.000,90.0,100724,,,A*5C

$GPHDT,90.0,T*0C

$GPVTG,90.0,T,,M,2.0,N,3.7,K*5F

$GPZDA,171049.000,10,07,2024,0,0*5E

$GPGGA,171050.00,5742.010,N,01159.382,E,1,05,0.92,45.0,M,47.5,M,,*67

$GPGSA,A,3,13,11,16,06,22,,,,,,,,1.56,0.92,1.25*0E

$GPGSV,4,1,15,13,32,341,99,10,30,067,67,32,77,246,96,16,17,232,08*7B

$GPGSV,4,2,15,11,55,059,43,22,73,068,64,01,25,248,55,28,27,335,43*7D

$GPGSV,4,3,15,18,07,171,20,25,24,165,09,12,44,036,56,02,38,282,10*7E

$GPGSV,4,4,15,21,11,066,65,06,83,155,12,26,84,312,39*40

$GPGLL,5742.010,N,01159.382,E,171050.000,A,A*5B

$GPRMC,171050.000,A,5742.010,N,01159.382,E,2.000,90.0,100724,,,A*57

$GPHDT,90.0,T*0C

$GPVTG,90.0,T,,M,2.0,N,3.7,K*5F

$GPZDA,171050.000,10,07,2024,0,0*56

$GPGGA,171051.00,5742.010,N,01159.383,E,1,05,0.92,45.0,M,47.5,M,,*67

$GPGSA,A,3,13,11,16,06,22,,,,,,,,1.56,0.92,1.25*0E

$GPGSV,4,1,15,13,32,341,99,10,30,067,67,32,77,246,96,16,17,232,08*7B

$GPGSV,4,2,15,11,55,059,43,22,73,068,64,01,25,248,55,28,27,335,43*7D

$GPGSV,4,3,15,18,07,171,20,25,24,165,09,12,44,036,56,02,38,282,10*7E

$GPGSV,4,4,15,21,11,066,65,06,83,155,12,26,84,312,39*40

$GPGLL,5742.010,N,01159.383,E,171051.000,A,A*5B

$GPRMC,171051.000,A,5742.010,N,01159.383,E,2.000,90.0,100724,,,A*57

$GPHDT,90.0,T*0C

$GPVTG,90.0,T,,M,2.0,N,3.7,K*5F

$GPZDA,171051.000,10,07,2024,0,0*57

$GPGGA,171052.00,5742.010,N,01159.384,E,1,05,0.92,45.0,M,47.5,M,,*63

$GPGSA,A,3,13,11,16,06,22,,,,,,,,1.56,0.92,1.25*0E

$GPGSV,4,1,15,13,32,341,99,10,30,067,67,32,77,246,96,16,17,232,08*7B

$GPGSV,4,2,15,11,55,059,43,22,73,068,64,01,25,248,55,28,27,335,43*7D

$GPGSV,4,3,15,18,07,171,20,25,24,165,09,12,44,036,56,02,38,282,10*7E

$GPGSV,4,4,15,21,11,066,65,06,83,155,12,26,84,312,39*40

$GPGLL,5742.010,N,01159.384,E,171052.000,A,A*5F

$GPRMC,171052.000,A,5742.010,N,01159.384,E,2.000,90.0,100724,,,A*53

$GPHDT,90.0,T*0C

$GPVTG,90.0,T,,M,2.0,N,3.7,K*5F

$GPZDA,171052.000,10,07,2024,0,0*54

$GPGGA,171053.00,5742.010,N,01159.385,E,1,05,0.92,45.0,M,47.5,M,,*63

$GPGSA,A,3,13,11,16,06,22,,,,,,,,1.56,0.92,1.25*0E

$GPGSV,4,1,15,13,32,341,99,10,30,067,67,32,77,246,96,16,17,232,08*7B

$GPGSV,4,2,15,11,55,059,43,22,73,068,64,01,25,248,55,28,27,335,43*7D

$GPGSV,4,3,15,18,07,171,20,25,24,165,09,12,44,036,56,02,38,282,10*7E

$GPGSV,4,4,15,21,11,066,65,06,83,155,12,26,84,312,39*40

$GPGLL,5742.010,N,01159.385,E,171053.000,A,A*5F

$GPRMC,171053.000,A,5742.010,N,01159.385,E,2.000,90.0,100724,,,A*53

$GPHDT,90.0,T*0C

$GPVTG,90.0,T,,M,2.0,N,3.7,K*5F

$GPZDA,171053.000,10,07,2024,0,0*55

$GPGGA,171054.00,5742.010,N,01159.387,E,1,05,0.92,45.0,M,47.5,M,,*66

$GPGSA,A,3,13,11,16,06,22,,,,,,,,1.56,0.92,1.25*0E

$GPGSV,4,1,15,13,32,341,99,10,30,067,67,32,77,246,96,16,17,232,08*7B

$GPGSV,4,2,15,11,55,059,43,22,73,068,64,01,25,248,55,28,27,335,43*7D

$GPGSV,4,3,15,18,07,171,20,25,24,165,09,12,44,036,56,02,38,282,10*7E

$GPGSV,4,4,15,21,11,066,65,06,83,155,12,26,84,312,39*40

$GPGLL,5742.010,N,01159.387,E,171054.000,A,A*5A

$GPRMC,171054.000,A,5742.010,N,01159.387,E,2.000,90.0,100724,,,A*56

$GPHDT,90.0,T*0C

$GPVTG,90.0,T,,M,2.0,N,3.7,K*5F

$GPZDA,171054.000,10,07,2024,0,0*52

$GPGGA,171055.00,5742.010,N,01159.388,E,1,05,0.92,45.0,M,47.5,M,,*68

$GPGSA,A,3,13,11,16,06,22,,,,,,,,1.56,0.92,1.25*0E

$GPGSV,4,1,15,13,32,341,99,10,30,067,67,32,77,246,96,16,17,232,08*7B

$GPGSV,4,2,15,11,55,059,43,22,73,068,64,01,25,248,55,28,27,335,43*7D

$GPGSV,4,3,15,18,07,171,20,25,24,165,09,12,44,036,56,02,38,282,10*7E

$GPGSV,4,4,15,21,11,066,65,06,83,155,12,26,84,312,39*40

$GPGLL,5742.010,N,01159.388,E,171055.000,A,A*54

$GPRMC,171055.000,A,5742.010,N,01159.388,E,2.000,90.0,100724,,,A*58

$GPHDT,90.0,T*0C

$GPVTG,90.0,T,,M,2.0,N,3.7,K*5F

$GPZDA,171055.000,10,07,2024,0,0*53

$GPGGA,171056.00,5742.010,N,01159.389,E,1,05,0.92,45.0,M,47.5,M,,*6A

